[
    {
        "name": "Thai Flavors",
        "address": "1254 E 14th St, Des Moines, IA 50316",
        "phone": "(515) 262-4658",
        "tags": ["thai"],
        "cuisines": ["thai"]
    },
    {
        "name": "Blu Thai Food and Sushi",
        "address": "215 E Walnut St, Des Moines, IA 50309",
        "phone": "(515) 528-2407",
        "menu": "https://m.facebook.com/BLU-Thai-Sushi-Restaurant-513655235384456/menu/?p_ref=pa",
        "tags": ["thai", "sushi", "des moines", "east village"],
        "cuisines": ["thai", "sushi"]
    },
    {
        "name": "Royal Mile",
        "address": "210 4th St, Des Moines, IA 50309",
        "phone": "(515) 280-3771",
        "menu": "royalmilebar.com",
        "hours": [
            {"Sunday": "10AM-2AM"},
            {"Monday": "11AM-2AM"},
            {"Tuesday": "11AM-2AM"},
            {"Wednesday": "11AM-2AM"},
            {"Thursday": "11AM-2AM"},
            {"Friday": "11AM-2AM"},
            {"Saturday": "8AM-2AM"}
        ],
        "tags": ["bar","pub", "british", "ale", "guinness"],
        "cuisines": ["british", "american"]
    },
    {
        "name": "Pho All Seasons",
        "address": "1311 E Euclid Ave, Des Moines, IA 50316",
        "phone": "(515) 330-1840",
        "menu": "http://places.singleplatform.com/pho-all-seasons/menu",
        "hours": [
            {"Sunday": "10AM-9PM"},
            {"Monday": "10AM-3PM"},
            {"Tuesday": "10AM-9PM"},
            {"Wednesday": "10AM-9PM"},
            {"Thursday": "10AM-9PM"},
            {"Friday": "10AM-9PM"},
            {"Saturday": "10AM-9PM"}
        ],
        "tags": [],
        "cuisines": ["vietnamese"]
    },
    {
        "name": "Shanghai Chinese Restaurant",
        "address": "33 NE Carefree Ln, Waukee, IA 50263",
        "phone": "(515) 987-3111",
        "menu": "http://www.shanghaiwk.com/menus/carryout.pdf",
        "hours": [
            {"Sunday": "11AM-9PM"},
            {"Monday": "Closed"},
            {"Tuesday": "11AM-9PM"},
            {"Wednesday": "11AM-9PM"},
            {"Thursday": "11AM-9PM"},
            {"Friday": "11AM-9:30PM"},
            {"Saturday": "11AM-9:30PM"}
        ],
        "tags": [],
        "cuisines": ["vietnamese", "chinese"]
    },
    {
        "name": "Jesse's Embers",
        "address": "3301 Ingersoll Ave, Des Moines, IA 50312",
        "phone": "(515) 255-6011",
        "menu": "http://places.singleplatform.com/jesses-embers/menu",
        "hours": [
            {"Sunday": "Closed"},
            {"Monday": "11AM-10PM"},
            {"Tuesday": "11AM-10PM"},
            {"Wednesday": "11AM-10PM"},
            {"Thursday": "11AM-10PM"},
            {"Friday": "11AM-10PM"},
            {"Saturday": "5PM-10PM"}
        ],
        "tags": ["burgers"],
        "cuisines": ["american"]
    },
    {
        "name": "Eatery A",
        "address": "2932 Ingersoll Ave, Des Moines, IA 50312",
        "phone": "(515) 282-8085",
        "menu": "http://www.opentable.com/eatery-a",
        "hours": [
            {"Sunday": "10AM-10PM"},
            {"Monday": "3PM-11PM"},
            {"Tuesday": "3PM-11PM"},
            {"Wednesday": "3PM-11PM"},
            {"Thursday": "3PM-11PM"},
            {"Friday": "10AM-12AM"},
            {"Saturday": "10AM-12AM"}
        ],
        "tags": ["burgers", "pizza", "happy hour", "bar"],
        "cuisines": ["mediterranean", "american"]
    }
]